[
    {
        "name": "Event Site",
        "lat": 45.714848,
        "lon": -121.516733,
        "gridId": "PQR",
        "gridX": 151,
        "gridY": 104
    },
    {
        "name": "Rufus",
        "lat": 45.6948,
        "lon": -120.7359,
        "gridId": "PDT",
        "gridX": 68,
        "gridY": 111
    },
    {
        "name": "Lyle",
        "lat": 45.6960,
        "lon": -121.2862,
        "gridId": "PDT",
        "gridX": 50,
        "gridY": 115
    },
    {
        "name": "Rowena",
        "lat": 45.6723,
        "lon": -121.2684,
        "gridId": "PDT",
        "gridX": 51,
        "gridY": 114
    },
    {
        "name": "Stevenson",
        "lat": 45.6957,
        "lon": -121.8845,
        "gridId": "PQR",
        "gridX": 139,
        "gridY": 106
    }
]